[
  {
    "city": "Банско",
    "region": "Благоевградска област",
    "sites": [
      {
        "name": "Музей \"Велянова къща\"",
        "number": "1",
        "image": "/sites/btsbg/001-velyanova-kushta.jpg",
        "link": "https://www.btsbg.org/100nto/muzey-velyanova-kshcha",
        "visited": false,
        "lat": 41.835167,
        "lng": 23.488167
      },
      {
        "name": "Къща - музей \"Неофит Рилски\"",
        "number": "1",
        "image": "/sites/btsbg/002-kushta-neofit-rilski.jpg",
        "link": "https://www.btsbg.org/100nto/kshcha-muzey-neofit-rilski",
        "visited": false,
        "lat": 41.8351421,
        "lng": 23.4867643
      },
      {
        "name": "Музей \"Никола Вапцаров\"",
        "number": "1",
        "image": "/sites/btsbg/003-muzei-nikola-vapcarov.jpg",
        "link": "https://www.btsbg.org/100nto/muzey-nikola-vapcarov",
        "visited": false,
        "lat": 41.8375024,
        "lng": 23.4888023
      },
      {
        "name": "Иконна изложба",
        "number": "1",
        "image": "/sites/btsbg/004-ikonna-izlojba.jpg",
        "link": "https://www.btsbg.org/100nto/ikonna-izlozhba",
        "visited": false,
        "lat": 41.8361455,
        "lng": 23.4881748
      },
      {
        "name": "Църква „Св. Троица“",
        "number": "1a",
        "image": "/sites/btsbg/005-tsarkva-sveta-troitsa-bansko.jpg",
        "link": "https://www.btsbg.org/100nto/crkva-sv-troica",
        "visited": false,
        "lat": 41.835338,
        "lng": 23.4855434
      }
    ]
  },
  {
    "city": "Пирин",
    "region": "Благоевградска област",
    "sites": [
      {
        "name": "Връх Вихрен (2914 м.)",
        "number": "2",
        "image": "/sites/btsbg/006-vruh-vihren.jpg",
        "link": "https://www.btsbg.org/100nto/vrh-vihren-2914-m",
        "visited": false,
        "lat": 41.7672372,
        "lng": 23.3885891
      }
    ]
  },
  {
    "city": "с.Добърско",
    "region": "Благоевградска област",
    "sites": [
      {
        "name": "Църква \"Св. Св. Теодор Тирон и Теодор Стратилат\"",
        "number": "3",
        "image": "/sites/btsbg/007-tsarkva-selo-dobarsko.jpg",
        "link": "https://www.btsbg.org/100nto/crkva-sv-sv-teodor-tiron-i-teodor-stratilat",
        "visited": false,
        "lat": 41.969972,
        "lng": 23.477306
      }
    ]
  },
  {
    "city": "Мелник",
    "region": "Благоевградска област",
    "sites": [
      {
        "name": "Градски исторически музей (История, етнография)",
        "number": "4",
        "image": "/sites/btsbg/008-istoricheski-muzei-melnik.jpg",
        "link": "https://www.btsbg.org/100nto/gradski-istoricheski-muzey-istoriya-etnografiya",
        "visited": false,
        "lat": 41.5233466,
        "lng": 23.3954078
      },
      {
        "name": "Кордопулова къща (нар. още Цинцарова къща)",
        "number": "4",
        "image": "/sites/btsbg/009-kordopulova-kushta-melnik.jpg",
        "link": "https://www.btsbg.org/100nto/kordopulova-kshcha-nar-oshche-cincarova-kshcha",
        "visited": false,
        "lat": 41.523028,
        "lng": 23.398361
      },
      {
        "name": "Роженски манастир \"Рождество богородично\"",
        "number": "4a",
        "image": "/sites/btsbg/010-svetorojenski-manastir-melnik.jpg",
        "link": "https://www.btsbg.org/100nto/rozhenski-manastir-rozhdestvo-bogorodichno",
        "visited": false,
        "lat": 41.530472,
        "lng": 23.426611
      }
    ]
  },
  {
    "city": "Петрич",
    "region": "Благоевградска област",
    "sites": [
      {
        "name": "Местност \"Рупите\" - храм паметник \"Света Петка Българска\"",
        "number": "5",
        "image": "/sites/btsbg/011-hram-pametni-sveta-petka-rupite-petrich.jpg",
        "link": "https://www.btsbg.org/100nto/mestnost-rupite-hram-pametnik-sveta-petka-blgarska",
        "visited": false,
        "lat": 41.459035,
        "lng": 23.264322
      },
      {
        "name": "Национален парк-музей „Самуилова крепост“",
        "number": "5a",
        "image": "/sites/btsbg/012-samuilova-krepost-petrich.jpg",
        "link": "https://www.btsbg.org/100nto/nacionalen-park-muzey-samuilova-krepost",
        "visited": false,
        "lat": 41.394775,
        "lng": 23.028942
      },
      {
        "name": "Античен град \"Хераклея Синтика\"",
        "number": "5б",
        "image": "/sites/btsbg/013-site.jpeg",
        "link": "https://www.btsbg.org/100nto/antichen-grad-herakleya-sintika",
        "visited": false,
        "lat": 41.449329,
        "lng": 23.264558
      }
    ]
  },
  {
    "city": "Благоевград",
    "region": "Благоевградска област",
    "sites": [
      {
        "name": "Регионален исторически музей",
        "number": "27",
        "image": "/sites/btsbg/014-regionalen-istoricheski-muzei-blagoevgrad.jpg",
        "link": "https://www.btsbg.org/100nto/regionalen-istoricheski-muzey",
        "visited": false,
        "lat": 42.020427,
        "lng": 23.103215
      },
      {
        "name": "Възрожденски комплекс „Вароша”",
        "number": "27",
        "image": "/sites/btsbg/015-vazrojdenski-kompleks-varosha-blagoevgrad.jpg",
        "link": "https://www.btsbg.org/100nto/vzrozhdenski-kompleks-varosha",
        "visited": false,
        "lat": 42.021217,
        "lng": 23.104066
      }
    ]
  },
  {
    "city": "Сандански",
    "region": "Благоевградска област",
    "sites": [
      {
        "name": "Епископска Базилика (откр. 1989 г.)",
        "number": "46",
        "image": "/sites/btsbg/016-etiopska-bazilika-sandanski.jpg",
        "link": "https://www.btsbg.org/100nto/episkopska-bazilika-otkr-1989-g",
        "visited": false,
        "lat": 41.5666221,
        "lng": 23.2797262
      },
      {
        "name": "Археологически музей (основан 1936г.)",
        "number": "46",
        "image": "/sites/btsbg/017-dscn7695.jpg",
        "link": "https://www.btsbg.org/100nto/arheologicheski-muzey-osnovan-1936g",
        "visited": false,
        "lat": 41.5664615,
        "lng": 23.2798033
      }
    ]
  },
  {
    "city": "Гоце Делчев",
    "region": "Благоевградска област",
    "sites": [
      {
        "name": "Общински исторически музей",
        "number": "59б",
        "image": "/sites/btsbg/018-obshtinski-istoricheski-muzei-gotse-delchev.jpg",
        "link": "https://www.btsbg.org/100nto/obshchinski-istoricheski-muzey",
        "visited": false,
        "lat": 41.572815,
        "lng": 23.727006
      }
    ]
  },
  {
    "city": "Несебър",
    "region": "Бургаска област",
    "sites": [
      {
        "name": "Археологически музей",
        "number": "6",
        "image": "/sites/btsbg/019-arheologicheski-muzei-nesebur.jpg",
        "link": "https://www.btsbg.org/100nto/arheologicheski-muzey",
        "visited": false,
        "lat": 42.6583467,
        "lng": 27.7307281
      }
    ]
  },
  {
    "city": "Поморие",
    "region": "Бургаска област",
    "sites": [
      {
        "name": "Музей на солта",
        "number": "6а",
        "image": "/sites/btsbg/020-muzei-na-solta-pomorie.jpg",
        "link": "https://www.btsbg.org/100nto/muzey-na-solta",
        "visited": false,
        "lat": 42.5655417,
        "lng": 27.6318018
      },
      {
        "name": "Поморийско езеро",
        "number": "6б",
        "image": "/sites/btsbg/021-pomoriisko-ezero-pomorie.jpg",
        "link": "https://www.btsbg.org/100nto/pomoriysko-ezero",
        "visited": false,
        "lat": 42.5849569,
        "lng": 27.6226475
      },
      {
        "name": "Антична куполна гробница Поморие",
        "number": "6а",
        "image": "/sites/btsbg/022-site.jpg",
        "link": "https://www.btsbg.org/100nto/antichna-kupolna-grobnica-pomorie",
        "visited": false,
        "lat": 42.5659059,
        "lng": 27.5860489
      }
    ]
  },
  {
    "city": "Бургас",
    "region": "Бургаска област",
    "sites": [
      {
        "name": "Природозащитен център \"Пода\"",
        "number": "7",
        "image": "/sites/btsbg/023-poda.jpg",
        "link": "https://www.btsbg.org/100nto/prirodozashchiten-centr-poda",
        "visited": false,
        "lat": 42.4439932,
        "lng": 27.4667306
      },
      {
        "name": "СКАЛЕН ФЕНОМЕН \"ТРИТЕ БРАТЯ\" - ГРАД АЙТОС",
        "number": "7а",
        "image": "/sites/btsbg/024-1.jpg",
        "link": "https://www.btsbg.org/100nto/skalen-fenomen-trite-bratya-grad-aytos",
        "visited": false,
        "lat": 42.7047319,
        "lng": 27.2601807
      }
    ]
  },
  {
    "city": "Малко Търново",
    "region": "Бургаска област",
    "sites": [
      {
        "name": "Исторически музей",
        "number": "8",
        "image": "/sites/btsbg/025-istoricheski-muzei-malko-turnovo.jpg",
        "link": "https://www.btsbg.org/100nto/istoricheski-muzey",
        "visited": false,
        "lat": 41.9794961,
        "lng": 27.5212598
      },
      {
        "name": "Местност Петрова нива",
        "number": "8",
        "image": "/sites/btsbg/026-mestnost-petrova-niva-malko-turnovo.jpg",
        "link": "https://www.btsbg.org/100nto/mestnost-petrova-niva",
        "visited": false,
        "lat": 42.061501,
        "lng": 27.530226
      }
    ]
  },
  {
    "city": "Созопол",
    "region": "Бургаска област",
    "sites": [
      {
        "name": "Археологически музей",
        "number": "8а",
        "image": "/sites/btsbg/027-arheologicheski-muzei-sozopol.jpg",
        "link": "https://www.btsbg.org/100nto/arheologicheski-muzey-0",
        "visited": true,
        "lat": 42.4220168,
        "lng": 27.6935308
      }
    ]
  },
  {
    "city": "Царево",
    "region": "Бургаска област",
    "sites": [
      {
        "name": "Общински исторически музей",
        "number": "8б",
        "image": "/sites/btsbg/028-obshtinski-istoricheski-muzei-tsarevo.jpg",
        "link": "https://www.btsbg.org/100nto/obshchinski-istoricheski-muzey-0",
        "visited": false,
        "lat": 42.1718124,
        "lng": 27.8530808
      }
    ]
  },
  {
    "city": "Варна",
    "region": "Варненска област",
    "sites": [
      {
        "name": "Регионален исторически музей",
        "number": "9",
        "image": "/sites/btsbg/029-regionalen-istoricheski-muzei-varna.jpg",
        "link": "https://www.btsbg.org/100nto/regionalen-istoricheski-muzey-0",
        "visited": true,
        "lat": 43.207397,
        "lng": 27.915069
      },
      {
        "name": "Военноморски музей",
        "number": "9а",
        "image": "/sites/btsbg/030-voennomorski-muzei-varna.jpg",
        "link": "https://www.btsbg.org/100nto/voennomorski-muzey",
        "visited": false,
        "lat": 43.2005425,
        "lng": 27.9215894
      },
      {
        "name": "Аладжа манастир",
        "number": "9в",
        "image": "/sites/btsbg/031-aladja-manastir-050-00-b.jpg",
        "link": "https://www.btsbg.org/100nto/aladzha-manastir",
        "visited": true,
        "lat": 43.2779995,
        "lng": 28.0151088
      },
      {
        "name": "Парк-музей “Владислав Варненчик”",
        "number": "9б",
        "image": "/sites/btsbg/032-img-0819.jpg",
        "link": "https://www.btsbg.org/100nto/park-muzey-vladislav-varnenchik",
        "visited": false,
        "lat": 43.2303208,
        "lng": 27.868434
      },
      {
        "name": "РИМСКИ ТЕРМИ",
        "number": "9в",
        "image": "/sites/btsbg/033-1.jpg",
        "link": "https://www.btsbg.org/100nto/rimski-termi",
        "visited": false,
        "lat": 43.2002577,
        "lng": 27.9181635
      }
    ]
  },
  {
    "city": "Девня",
    "region": "Варненска област",
    "sites": [
      {
        "name": "Музей на мозайките",
        "number": "10",
        "image": "/sites/btsbg/034-muzei-na-mozaikite-devnya.jpg",
        "link": "https://www.btsbg.org/100nto/muzey-na-mozaykite",
        "visited": false,
        "lat": 43.225396,
        "lng": 27.5848827
      }
    ]
  },
  {
    "city": "Велико Търново",
    "region": "Великотърновска област",
    "sites": [
      {
        "name": "Царевец",
        "number": "11",
        "image": "/sites/btsbg/035-tsarevets-veliko-tarnovo.jpg",
        "link": "https://www.btsbg.org/100nto/carevec",
        "visited": true,
        "lat": 43.0835941,
        "lng": 25.6524479
      },
      {
        "name": "Регионален исторически музей",
        "number": "11",
        "image": "/sites/btsbg/036-regionalen-istoricheski-muzei-veliko-tarnovo.jpg",
        "link": "https://www.btsbg.org/100nto/regionalen-istoricheski-muzey-1",
        "visited": false,
        "lat": 43.0814663,
        "lng": 25.6443005
      },
      {
        "name": "НИКОПОЛИС АД ИСТРУМ",
        "number": "11а",
        "image": "/sites/btsbg/037-nicopolis-ad-istrum.jpg",
        "link": "https://www.btsbg.org/100nto/nikopolis-ad-istrum",
        "visited": false,
        "lat": 43.2176269,
        "lng": 25.6116331
      }
    ]
  },
  {
    "city": "Свищов",
    "region": "Великотърновска област",
    "sites": [
      {
        "name": "Къща музей \"Алеко Константинов\"",
        "number": "12",
        "image": "/sites/btsbg/038-kushta-muzei-aleko-konstantinov-svishtov.jpg",
        "link": "https://www.btsbg.org/100nto/kshcha-muzey-aleko-konstantinov",
        "visited": false,
        "lat": 43.620559,
        "lng": 25.340041
      }
    ]
  },
  {
    "city": "Елена",
    "region": "Великотърновска област",
    "sites": [
      {
        "name": "Къща - музей \"Иларион Макариополски\"",
        "number": "60",
        "image": "/sites/btsbg/039-kushta-muzei-ilarion-makariopolski-elena.jpg",
        "link": "https://www.btsbg.org/100nto/kshcha-muzey-ilarion-makariopolski",
        "visited": false,
        "lat": 42.9303477,
        "lng": 25.8798108
      },
      {
        "name": "Арх. - исторически комплекс - Даскалоливница",
        "number": "60",
        "image": "/sites/btsbg/040-arhitekturno-istoricheski-kompleks-daskalolivnitsa-elena.jpg",
        "link": "https://www.btsbg.org/100nto/arh-istoricheski-kompleks-daskalolivnica",
        "visited": false,
        "lat": 42.928556,
        "lng": 25.876368
      }
    ]
  },
  {
    "city": "Смолян",
    "region": "Смолянска област",
    "sites": [
      {
        "name": "Регионален исторически музей",
        "number": "83",
        "image": "/sites/btsbg/041-istoricheski-muzei-smolyan.jpg",
        "link": "https://www.btsbg.org/100nto/regionalen-istoricheski-muzey-8",
        "visited": true,
        "lat": 41.5763396,
        "lng": 24.7146161
      },
      {
        "name": "Планетариум",
        "number": "83а",
        "image": "/sites/btsbg/042-planetarium-2.jpg",
        "link": "https://www.btsbg.org/100nto/planetarium",
        "visited": true,
        "lat": 41.5759377,
        "lng": 24.7087044
      }
    ]
  },
  {
    "city": "Чепеларе",
    "region": "Смолянска област",
    "sites": [
      {
        "name": "Музей на Родопския карст",
        "number": "85а",
        "image": "/sites/btsbg/043-85-04.jpg",
        "link": "https://www.btsbg.org/100nto/muzey-na-rodopskiya-karst",
        "visited": false,
        "lat": 41.725246,
        "lng": 24.688296
      },
      {
        "name": "Национално астрономическа обсерватория Рожен",
        "number": "85а",
        "image": "/sites/btsbg/044-85-01.jpg",
        "link": "https://www.btsbg.org/100nto/nacionalno-astronomicheska-observatoriya-rozhen",
        "visited": false,
        "lat": 41.6933897,
        "lng": 24.7385555
      }
    ]
  },
  {
    "city": "с.Момчиловци",
    "region": "Смолянска област",
    "sites": [
      {
        "name": "Църква „Св.Константин и Елена”, с. Момчиловци",
        "number": "83б",
        "image": "/sites/btsbg/045-selo-momchilovtsi.jpg",
        "link": "https://www.btsbg.org/100nto/crkva-svkonstantin-i-elena-s-momchilovci",
        "visited": true,
        "lat": 41.658922,
        "lng": 24.775795
      }
    ]
  },
  {
    "city": "с.Могилица",
    "region": "Смолянска област",
    "sites": [
      {
        "name": "„Агушеви конаци“",
        "number": "84",
        "image": "/sites/btsbg/046-img-agushevi.jpg",
        "link": "https://www.btsbg.org/100nto/agushevi-konaci",
        "visited": false,
        "lat": 41.4881201,
        "lng": 24.6042915
      }
    ]
  },
  {
    "city": "Родопи",
    "region": "Смолянска област",
    "sites": [
      {
        "name": "Пещера \"Ухловица\"",
        "number": "84",
        "image": "/sites/btsbg/047-peshtera-uhlovitsa-rodopi.jpg",
        "link": "https://www.btsbg.org/100nto/peshchera-uhlovica",
        "visited": false,
        "lat": 41.514165,
        "lng": 24.659929
      },
      {
        "name": "Връх Голям Перелик (2191 м)",
        "number": "85",
        "image": "/sites/btsbg/048-vruh-golyam-perelik-rodopi.jpg",
        "link": "https://www.btsbg.org/100nto/vrh-golyam-perelik-2191-m",
        "visited": true,
        "lat": 41.602655,
        "lng": 24.574506
      },
      {
        "name": "Пещера \"Шаренка\"",
        "number": "87а",
        "image": "/sites/btsbg/049-peshtera-sharenka-rodopi.jpg",
        "link": "https://www.btsbg.org/100nto/peshchera-sharenka",
        "visited": false,
        "lat": 41.489794,
        "lng": 24.917639
      },
      {
        "name": "Триградско ждрело",
        "number": "88",
        "image": "/sites/btsbg/050-trigradsko-jdrelo-rodopi.jpg",
        "link": "https://www.btsbg.org/100nto/trigradsko-zhdrelo",
        "visited": true,
        "lat": 41.606779,
        "lng": 24.383308
      },
      {
        "name": "Пещера \"Дяволско гърло\"",
        "number": "88",
        "image": "/sites/btsbg/051-devil-s-throat-cave-40-0.jpg",
        "link": "https://www.btsbg.org/100nto/peshchera-dyavolsko-grlo",
        "visited": true,
        "lat": 41.614885,
        "lng": 24.379129
      },
      {
        "name": "Ягодинска пещера",
        "number": "89",
        "image": "/sites/btsbg/052-yagodinska-peshtera-rodopi.jpg",
        "link": "https://www.btsbg.org/100nto/yagodinska-peshchera",
        "visited": true,
        "lat": 41.628997,
        "lng": 24.330018
      },
      {
        "name": "Буйновско ждрело",
        "number": "89",
        "image": "/sites/btsbg/053-buinovsko-jdrelo-rodopi.jpg",
        "link": "https://www.btsbg.org/100nto/buynovsko-zhdrelo",
        "visited": true,
        "lat": 41.649419,
        "lng": 24.335012
      },
      {
        "name": "Пещера Лепеница – Дионисиевата пещера",
        "number": "55 А",
        "image": "/sites/btsbg/054-saeva-cave.jpg",
        "link": "https://www.btsbg.org/100nto/peshcherata-lepenica-dionisievata-peshchera",
        "visited": false,
        "lat": 41.9561076,
        "lng": 24.0080264
      }
    ]
  },
  {
    "city": "Пампорово",
    "region": "Смолянска област",
    "sites": [
      {
        "name": "Връх Снежанка",
        "number": "84а",
        "image": "/sites/btsbg/055-vruh-snejanka-pamporovo.jpg",
        "link": "https://www.btsbg.org/100nto/vrh-snezhanka",
        "visited": false,
        "lat": 41.636871,
        "lng": 24.679413
      }
    ]
  },
  {
    "city": "Златоград",
    "region": "Смолянска област",
    "sites": [
      {
        "name": "Eтнографски ареален комплекс",
        "number": "86",
        "image": "/sites/btsbg/056-etnogravski-arealen-kompleks-zlatograd.jpg",
        "link": "https://www.btsbg.org/100nto/etnografski-arealen-kompleks",
        "visited": false,
        "lat": 41.3872204,
        "lng": 25.0863761
      }
    ]
  },
  {
    "city": "с.Широка Лъка",
    "region": "Смолянска област",
    "sites": [
      {
        "name": "Широка Лъка (архитектурен резерват)",
        "number": "87",
        "image": "/sites/btsbg/057-arhitekturen-rezervat-shiroka-luka.jpg",
        "link": "https://www.btsbg.org/100nto/shiroka-lka-arhitekturen-rezervat",
        "visited": true,
        "lat": 41.679066,
        "lng": 24.582239
      }
    ]
  },
  {
    "city": "Мадан",
    "region": "Смолянска област",
    "sites": [
      {
        "name": "Кристална зала \"Родопски кристал\"",
        "number": "87а",
        "image": "/sites/btsbg/058-rodopski-kristam-madan.jpg",
        "link": "https://www.btsbg.org/100nto/kristalna-zala-rodopski-kristal",
        "visited": false,
        "lat": 41.498355,
        "lng": 24.939826
      }
    ]
  },
  {
    "city": "Видин",
    "region": "Видинска област",
    "sites": [
      {
        "name": "Исторически музей",
        "number": "13",
        "image": "/sites/btsbg/059-istoricheski-muzei-vidin.jpg",
        "link": "https://www.btsbg.org/100nto/istoricheski-muzey-1",
        "visited": false,
        "lat": 43.988501,
        "lng": 22.878043
      },
      {
        "name": "Крепост \"Баба Вида\"",
        "number": "13",
        "image": "/sites/btsbg/060-krepost-baba-vida-vidin.jpg",
        "link": "https://www.btsbg.org/100nto/krepost-baba-vida",
        "visited": false,
        "lat": 43.9929708,
        "lng": 22.886094
      }
    ]
  },
  {
    "city": "Белоградчик",
    "region": "Видинска област",
    "sites": [
      {
        "name": "Пещера Магурата (2608 м)",
        "number": "14",
        "image": "/sites/btsbg/061-peshtera-magurata.jpg",
        "link": "https://www.btsbg.org/100nto/peshchera-magurata-2608-m",
        "visited": false,
        "lat": 43.727863,
        "lng": 22.582655
      },
      {
        "name": "Исторически музей",
        "number": "15",
        "image": "/sites/btsbg/062-istoricheski-muzei-belogradchik.jpg",
        "link": "https://www.btsbg.org/100nto/istoricheski-muzey-2",
        "visited": false,
        "lat": 43.6248816,
        "lng": 22.6815266
      },
      {
        "name": "Белоградчишки скали и крепост \"Калето\"",
        "number": "15",
        "image": "/sites/btsbg/063-belogradchishki-skali.jpg",
        "link": "https://www.btsbg.org/100nto/belogradchishki-skali-i-krepost-kaleto",
        "visited": false,
        "lat": 43.6249724,
        "lng": 22.6821106
      }
    ]
  },
  {
    "city": "Враца",
    "region": "Врачанска област",
    "sites": [
      {
        "name": "Пещера „Леденика“",
        "number": "16",
        "image": "/sites/btsbg/064-peshtera-ledenika.jpg",
        "link": "https://www.btsbg.org/100nto/peshchera-ledenika",
        "visited": false,
        "lat": 43.2045465,
        "lng": 23.4911463
      },
      {
        "name": "Регионален исторически музей",
        "number": "16",
        "image": "/sites/btsbg/065-regionalen-istoricheski-muzei-vratsa.jpg",
        "link": "https://www.btsbg.org/100nto/regionalen-istoricheski-muzey-2",
        "visited": false,
        "lat": 43.2007599,
        "lng": 23.5476378
      },
      {
        "name": "връх Околчица – Лобното място на Христо Ботев (1048 м)",
        "number": "17",
        "image": "/sites/btsbg/066-vruh-okolchitsa.jpg",
        "link": "https://www.btsbg.org/100nto/vrh-okolchica-lobnoto-myasto-na-hristo-botev-1048-m",
        "visited": false,
        "lat": 43.15415,
        "lng": 23.583977
      }
    ]
  },
  {
    "city": "Мездра",
    "region": "Врачанска област",
    "sites": [
      {
        "name": "Археологически комплекс „КАЛЕТО”",
        "number": "16а",
        "image": "/sites/btsbg/067-arheologicheski-kompleks-kaleto.jpg",
        "link": "https://www.btsbg.org/100nto/arheologicheski-kompleks-kaleto",
        "visited": false,
        "lat": 43.1398748,
        "lng": 23.7046947
      }
    ]
  },
  {
    "city": "Козлодуй",
    "region": "Врачанска област",
    "sites": [
      {
        "name": "Национален музей \"Параход Радецки\"",
        "number": "18",
        "image": "/sites/btsbg/068-parahod-radetski.jpg",
        "link": "https://www.btsbg.org/100nto/nacionalen-muzey-parahod-radecki",
        "visited": false,
        "lat": 43.798699,
        "lng": 23.677136
      },
      {
        "name": "Паметник на Христо Ботев и неговата чета",
        "number": "18",
        "image": "/sites/btsbg/069-pametnik-na-hristo-botev-kozlodui.jpg",
        "link": "https://www.btsbg.org/100nto/pametnik-na-hristo-botev-i-negovata-cheta",
        "visited": false,
        "lat": 43.79794,
        "lng": 23.677683
      }
    ]
  },
  {
    "city": "Габрово",
    "region": "Габровска област",
    "sites": [
      {
        "name": "Музей на образованието",
        "number": "19а",
        "image": "/sites/btsbg/070-muzei-na-obrazovanieto-gabrovo.jpg",
        "link": "https://www.btsbg.org/100nto/muzey-na-obrazovanieto",
        "visited": false,
        "lat": 42.8704016,
        "lng": 25.3165643
      },
      {
        "name": "Регионален етнографски музей на открито„Етър”",
        "number": "19",
        "image": "/sites/btsbg/071-emo-etar-zanayatchiyska-charshiya-3.jpg",
        "link": "https://www.btsbg.org/100nto/regionalen-etnografski-muzey-na-otkritoetr",
        "visited": false,
        "lat": 42.80528,
        "lng": 25.348565
      },
      {
        "name": "Географски център на България, местността „Узана”",
        "number": "19а",
        "image": "/sites/btsbg/072-uzana-gabrovo.jpg",
        "link": "https://www.btsbg.org/100nto/geografski-centr-na-blgariya-mestnostta-uzana",
        "visited": false,
        "lat": 42.750888,
        "lng": 25.238514
      },
      {
        "name": "\"Дом на хумора и сатирата” (1 април 1972 г.)",
        "number": "19а",
        "image": "/sites/btsbg/073-site.png",
        "link": "https://www.btsbg.org/100nto/dom-na-humora-i-satirata-1-april-1972-g",
        "visited": false,
        "lat": 42.879446,
        "lng": 25.317982
      },
      {
        "name": "Регионален исторически музей – Габрово; Музеен обект Дечкова къща",
        "number": "19б",
        "image": "/sites/btsbg/074-13458605-604980823014360-8155417860428966956-o.jpg",
        "link": "https://www.btsbg.org/100nto/regionalen-istoricheski-muzey-gabrovo-muzeen-obekt-dechkova-kshcha",
        "visited": false,
        "lat": 42.8731709,
        "lng": 25.3175429
      }
    ]
  },
  {
    "city": "с.Боженци",
    "region": "Габровска област",
    "sites": [
      {
        "name": "Архитектурно-исторически резерват Боженци",
        "number": "20",
        "image": "/sites/btsbg/075-bozhentsi.jpg",
        "link": "https://www.btsbg.org/100nto/arhitekturno-istoricheski-rezervat-bozhenci",
        "visited": false,
        "lat": 42.872858,
        "lng": 25.424439
      }
    ]
  },
  {
    "city": "Трявна",
    "region": "Габровска област",
    "sites": [
      {
        "name": "Специализиран музей за резбарско и етнографско изкуство",
        "number": "21",
        "image": "/sites/btsbg/076-muzei-na-rezbarstvoto-tryavna.jpg",
        "link": "https://www.btsbg.org/100nto/specializiran-muzey-za-rezbarsko-i-etnografsko-izkustvo",
        "visited": false,
        "lat": 42.865089,
        "lng": 25.486865
      }
    ]
  },
  {
    "city": "Севлиево",
    "region": "Габровска област",
    "sites": [
      {
        "name": "Исторически музей Севлиево – Хаджистояново училище",
        "number": "20а",
        "image": "/sites/btsbg/077-20-03.jpg",
        "link": "https://www.btsbg.org/100nto/istoricheski-muzey-sevlievo-hadzhistoyanovo-uchilishche",
        "visited": false,
        "lat": 43.026032,
        "lng": 25.103213
      },
      {
        "name": "Ранновизантийска и средновековна крепост Хоталич",
        "number": "20а",
        "image": "/sites/btsbg/078-20-01.jpg",
        "link": "https://www.btsbg.org/100nto/rannovizantiyska-i-srednovekovna-krepost-hotalich",
        "visited": false,
        "lat": 43.057005,
        "lng": 25.062776
      }
    ]
  },
  {
    "city": "Дряново",
    "region": "Габровска област",
    "sites": [
      {
        "name": "Дряновски манастир",
        "number": "22",
        "image": "/sites/btsbg/079-dryanovski-manastir.jpg",
        "link": "https://www.btsbg.org/100nto/dryanovski-manastir",
        "visited": false,
        "lat": 42.950384,
        "lng": 25.4322327
      },
      {
        "name": "Пещера „Бачо Киро“",
        "number": "22",
        "image": "/sites/btsbg/080-peshtera-bacho-kiro.jpg",
        "link": "https://www.btsbg.org/100nto/peshchera-bacho-kiro",
        "visited": false,
        "lat": 42.947245,
        "lng": 25.430163
      },
      {
        "name": "Музей „Кольо Фичето“",
        "number": "22а",
        "image": "/sites/btsbg/081-muzei-kolio-ficheto-drianovo.jpg",
        "link": "https://www.btsbg.org/100nto/muzey-kolo-ficheto",
        "visited": false,
        "lat": 42.979494,
        "lng": 25.477467
      }
    ]
  },
  {
    "city": "Добрич",
    "region": "Добричка област",
    "sites": [
      {
        "name": "Художествена галерия",
        "number": "23",
        "image": "/sites/btsbg/082-hudojestvena-galeriya-dobrich.jpg",
        "link": "https://www.btsbg.org/100nto/hudozhestvena-galeriya",
        "visited": false,
        "lat": 43.5683536,
        "lng": 27.8264462
      },
      {
        "name": "Дом - паметник „Й. Йовков“",
        "number": "23",
        "image": "/sites/btsbg/083-dom-pametnik-na-iordan-iovkov-dobrich.jpg",
        "link": "https://www.btsbg.org/100nto/dom-pametnik-y-yovkov",
        "visited": false,
        "lat": 43.5637566,
        "lng": 27.8324371
      }
    ]
  },
  {
    "city": "Балчик",
    "region": "Добричка област",
    "sites": [
      {
        "name": "Архитектурен парков комплекс „Двореца“",
        "number": "24",
        "image": "/sites/btsbg/084-kompleks-dvoretsa-balchik.jpg",
        "link": "https://www.btsbg.org/100nto/arhitekturen-parkov-kompleks-dvoreca",
        "visited": true,
        "lat": 43.40456,
        "lng": 28.14708
      },
      {
        "name": "Университетска ботаническа градина",
        "number": "24а",
        "image": "/sites/btsbg/085-universitetska-botanicheska-gradina-balchik.jpg",
        "link": "https://www.btsbg.org/100nto/universitetska-botanicheska-gradina",
        "visited": true,
        "lat": 43.403294,
        "lng": 28.143014
      }
    ]
  },
  {
    "city": "Каварна",
    "region": "Добричка област",
    "sites": [
      {
        "name": "Исторически музей Каварна",
        "number": "24б",
        "image": "/sites/btsbg/086-istoricheski-muzei-kavarna.jpg",
        "link": "https://www.btsbg.org/100nto/istoricheski-muzey-kavarna",
        "visited": true,
        "lat": 43.432195,
        "lng": 28.3401784
      }
    ]
  },
  {
    "city": "Нос Калиакра",
    "region": "Добричка област",
    "sites": [
      {
        "name": "Археологически резерват „Калиакра”",
        "number": "24б",
        "image": "/sites/btsbg/087-arheologicheski-rezervat-kaliakra-nos-kaliakra.jpg",
        "link": "https://www.btsbg.org/100nto/arheologicheski-rezervat-kaliakra",
        "visited": true,
        "lat": 43.360956,
        "lng": 28.465734
      }
    ]
  },
  {
    "city": "Дуранкулак",
    "region": "Добричка област",
    "sites": [
      {
        "name": "Археологически комплекс „Дуранкулак – Хаманджия“",
        "number": "24 в",
        "image": "/sites/btsbg/088-site.jpg",
        "link": "https://www.btsbg.org/100nto/arheologicheski-kompleks-durankulak-hamandzhiya",
        "visited": false,
        "lat": 43.6694636,
        "lng": 28.495198
      }
    ]
  },
  {
    "city": "Кърджали",
    "region": "Кърджалийска област",
    "sites": [
      {
        "name": "Перперикон /Хиперперакион/",
        "number": "25",
        "image": "/sites/btsbg/089-perperikon-kurdjali.jpg",
        "link": "https://www.btsbg.org/100nto/perperikon-hiperperakion",
        "visited": false,
        "lat": 41.714907,
        "lng": 25.465622
      },
      {
        "name": "Манастир „Св. Йоан Предтеча“",
        "number": "25",
        "image": "/sites/btsbg/090-manastir-sveti-ioan-predtecha-kurdjali.jpg",
        "link": "https://www.btsbg.org/100nto/manastir-sv-yoan-predtecha",
        "visited": false,
        "lat": 41.6265828,
        "lng": 25.3701109
      },
      {
        "name": "Регионален исторически музей",
        "number": "25а",
        "image": "/sites/btsbg/091-regionalen-istoricheski-muzei-kurdjali.jpg",
        "link": "https://www.btsbg.org/100nto/regionalen-istoricheski-muzey-3",
        "visited": false,
        "lat": 41.6469701,
        "lng": 25.3695279
      }
    ]
  },
  {
    "city": "Кюстендил",
    "region": "Кюстендилска област",
    "sites": [
      {
        "name": "Худ. галерия „Владимир Димитров – Майстора“",
        "number": "26",
        "image": "/sites/btsbg/092-hudojestvena-galeriya-vladimir-dimitrov-maistora-kystendil.jpg",
        "link": "https://www.btsbg.org/100nto/hud-galeriya-vladimir-dimitrov-maystora",
        "visited": false,
        "lat": 42.282925,
        "lng": 22.688935
      },
      {
        "name": "Къща-музей „Димитър Пешев“",
        "number": "26",
        "image": "/sites/btsbg/093-kushta-muzei-dimitar-peshev-kystendil.jpg",
        "link": "https://www.btsbg.org/100nto/kshcha-muzey-dimitr-peshev",
        "visited": false,
        "lat": 42.283413,
        "lng": 22.689047
      },
      {
        "name": "Музей „Средновековна църква Св. Георги“",
        "number": "26",
        "image": "/sites/btsbg/094-tsarkva-sveti-georgi-kystendil.jpg",
        "link": "https://www.btsbg.org/100nto/muzey-srednovekovna-crkva-sv-georgi",
        "visited": false,
        "lat": 42.270831,
        "lng": 22.676994
      },
      {
        "name": "Регионален исторически музей",
        "number": "26",
        "image": "/sites/btsbg/095-regionalen-istoricheski-muzei-kystendil.jpg",
        "link": "https://www.btsbg.org/100nto/regionalen-istoricheski-muzey-4",
        "visited": false,
        "lat": 42.287398,
        "lng": 22.685104
      },
      {
        "name": "Връх Руен (вис. 2 251 м) – първенецът на Осоговска планина",
        "number": "26а",
        "image": "/sites/btsbg/096-vruh-ruen.jpg",
        "link": "https://www.btsbg.org/100nto/vrh-ruen-vis-2-251-m-prvenect-na-osogovska-planina",
        "visited": false,
        "lat": 42.158003,
        "lng": 22.516297
      },
      {
        "name": "Музей Рилски манастир в Рилска света обител",
        "number": "28",
        "image": "/sites/btsbg/097-rilski-manastir.jpg",
        "link": "https://www.btsbg.org/100nto/muzey-rilski-manastir-v-rilska-sveta-obitel",
        "visited": false,
        "lat": 42.133403,
        "lng": 23.340116
      },
      {
        "name": "Хижа „Скакавица“ и Седемте рилски езера",
        "number": "29",
        "image": "/sites/btsbg/098-hija-skakavitsa-sedemte-rilski-ezera.jpg",
        "link": "https://www.btsbg.org/100nto/hizha-skakavica-i-sedemte-rilski-ezera",
        "visited": false,
        "lat": 42.230531,
        "lng": 23.30359
      }
    ]
  },
  {
    "city": "с.Стоб",
    "region": "Кюстендилска област",
    "sites": [
      {
        "name": "Стобски пирамиди",
        "number": "28а",
        "image": "/sites/btsbg/099-stobski-piramidi-selo-stob.jpg",
        "link": "https://www.btsbg.org/100nto/stobski-piramidi",
        "visited": false,
        "lat": 42.09132,
        "lng": 23.113754
      }
    ]
  },
  {
    "city": "Ловеч",
    "region": "Ловешка област",
    "sites": [
      {
        "name": "Музей „Васил Левски“",
        "number": "30",
        "image": "/sites/btsbg/100-muzei-vasil-levski-locech.jpg",
        "link": "https://www.btsbg.org/100nto/muzey-vasil-levski",
        "visited": false,
        "lat": 43.1299733,
        "lng": 24.7174397
      },
      {
        "name": "Къкринско ханче",
        "number": "30а",
        "image": "/sites/btsbg/101-kukrinsko-hanche-lovech.jpg",
        "link": "https://www.btsbg.org/100nto/kkrinsko-hanche",
        "visited": false,
        "lat": 43.1247496,
        "lng": 24.884434
      },
      {
        "name": "Етнографски музей",
        "number": "30б",
        "image": "/sites/btsbg/102-etno-01.jpg",
        "link": "https://www.btsbg.org/100nto/etnografski-muzey-1",
        "visited": false,
        "lat": 43.1303894,
        "lng": 24.7156426
      }
    ]
  },
  {
    "city": "Луковит",
    "region": "Ловешка област",
    "sites": [
      {
        "name": "Национален пещерен дом - с. Карлуково",
        "number": "30д",
        "image": "/sites/btsbg/103-psx-20240629-214117sm.jpg",
        "link": "https://www.btsbg.org/100nto/nacionalen-peshcheren-dom-s-karlukovo",
        "visited": false,
        "lat": 43.1805213,
        "lng": 24.0682546
      }
    ]
  },
  {
    "city": "с.Деветаки",
    "region": "Ловешка област",
    "sites": [
      {
        "name": "Деветашка пещера (2 442 м.)",
        "number": "30в",
        "image": "/sites/btsbg/104-devetashka-peshtera.jpg",
        "link": "https://www.btsbg.org/100nto/devetashka-peshchera-2-442-m",
        "visited": false,
        "lat": 43.233492,
        "lng": 24.885455
      }
    ]
  },
  {
    "city": "Троян",
    "region": "Ловешка област",
    "sites": [
      {
        "name": "Троянска Света Обител „Усп. Богородично“",
        "number": "31",
        "image": "/sites/btsbg/105-troyanski-manastir.jpg",
        "link": "https://www.btsbg.org/100nto/troyanska-sveta-obitel-usp-bogorodichno",
        "visited": true,
        "lat": 42.861901,
        "lng": 24.780859
      },
      {
        "name": "Природонаучен музей - с. Черни Осъм",
        "number": "31а",
        "image": "/sites/btsbg/106-prirodonauchen-muzei-cherni-osum.jpg",
        "link": "https://www.btsbg.org/100nto/prirodonauchen-muzey-s-cherni-osm",
        "visited": false,
        "lat": 42.841096,
        "lng": 24.768204
      },
      {
        "name": "Музей на народните худ. занаяти и приложните изкуства",
        "number": "31б",
        "image": "/sites/btsbg/107-muzei-na-prlojnite-izkustva-troyan.jpg",
        "link": "https://www.btsbg.org/100nto/muzey-na-narodnite-hud-zanayati-i-prilozhnite-izkustva",
        "visited": false,
        "lat": 42.884355,
        "lng": 24.711068
      }
    ]
  },
  {
    "city": "Тетевен",
    "region": "Ловешка област",
    "sites": [
      {
        "name": "Исторически музей (осн. 1911 г.)",
        "number": "32",
        "image": "/sites/btsbg/108-istoricheski-muzei-teteven.jpg",
        "link": "https://www.btsbg.org/100nto/istoricheski-muzey-osn-1911-g",
        "visited": false,
        "lat": 42.9256667,
        "lng": 24.2634911
      }
    ]
  },
  {
    "city": "с.Брестница",
    "region": "Ловешка област",
    "sites": [
      {
        "name": "Пещера „Съева дупка“ (400 м)",
        "number": "33",
        "image": "/sites/btsbg/109-peshtera-saeva-dupka.jpg",
        "link": "https://www.btsbg.org/100nto/peshchera-seva-dupka-400-m",
        "visited": false,
        "lat": 43.046985,
        "lng": 24.186101
      }
    ]
  },
  {
    "city": "Монтана",
    "region": "Монтанска област",
    "sites": [
      {
        "name": "Регионален исторически музей - Монтана",
        "number": "34а",
        "image": "/sites/btsbg/110-01.jpg",
        "link": "https://www.btsbg.org/100nto/regionalen-istoricheski-muzey-montana",
        "visited": false,
        "lat": 43.4054978,
        "lng": 23.2269987
      },
      {
        "name": "връх Ком (2016 m) - Стара планина",
        "number": "34",
        "image": "/sites/btsbg/111-vruh-kom.jpg",
        "link": "https://www.btsbg.org/100nto/vrh-kom-2016-m-stara-planina",
        "visited": false,
        "lat": 43.173863,
        "lng": 23.052095
      }
    ]
  },
  {
    "city": "Берковица",
    "region": "Монтанска област",
    "sites": [
      {
        "name": "Етнографски музей",
        "number": "34",
        "image": "/sites/btsbg/112-etnogravski-muzei-berkovitsa.jpg",
        "link": "https://www.btsbg.org/100nto/etnografski-muzey",
        "visited": false,
        "lat": 43.2387368,
        "lng": 23.1271964
      },
      {
        "name": "Къща музей „Иван Вазов”",
        "number": "34",
        "image": "/sites/btsbg/113-kushta-muzei-ivan-vazov-berkovitsa.jpg",
        "link": "https://www.btsbg.org/100nto/kshcha-muzey-ivan-vazov",
        "visited": false,
        "lat": 43.2390995,
        "lng": 23.1265276
      }
    ]
  },
  {
    "city": "Чипровци",
    "region": "Монтанска област",
    "sites": [
      {
        "name": "Исторически музей",
        "number": "69",
        "image": "/sites/btsbg/114-istoricheski-muzei-chiprovtsi.jpg",
        "link": "https://www.btsbg.org/100nto/istoricheski-muzey-3",
        "visited": false,
        "lat": 43.3835151,
        "lng": 22.8789332
      },
      {
        "name": "Манастир „Св. Ив. Рилски”",
        "number": "69",
        "image": "/sites/btsbg/115-manastir-sveti-ivan-rilski-chiprovtsi.jpg",
        "link": "https://www.btsbg.org/100nto/manastir-sv-iv-rilski",
        "visited": false,
        "lat": 43.403824,
        "lng": 22.933863
      }
    ]
  },
  {
    "city": "Пазарджик",
    "region": "Пазарджишка област",
    "sites": [
      {
        "name": "Къща-музей „Станислав Доспевски”",
        "number": "35",
        "image": "/sites/btsbg/116-kushta-muzei-stanislav-dospevski-pazardzik.jpg",
        "link": "https://www.btsbg.org/100nto/kshcha-muzey-stanislav-dospevski",
        "visited": false,
        "lat": 42.186385,
        "lng": 24.3252263
      },
      {
        "name": "Катедрална църква „Св. Богородица”",
        "number": "35",
        "image": "/sites/btsbg/117-katerdalna-tsarkva-sveta-bogoroditsa-pazardzik.jpg",
        "link": "https://www.btsbg.org/100nto/katedralna-crkva-sv-bogorodica",
        "visited": false,
        "lat": 42.187286,
        "lng": 24.325173
      },
      {
        "name": "Регионален исторически музей",
        "number": "35",
        "image": "/sites/btsbg/118-regionalen-istoricheski-muzei-pazardzik.jpg",
        "link": "https://www.btsbg.org/100nto/regionalen-istoricheski-muzey-5",
        "visited": false,
        "lat": 42.190567,
        "lng": 24.3327275
      }
    ]
  },
  {
    "city": "Панагюрище",
    "region": "Пазарджишка област",
    "sites": [
      {
        "name": "Историческа местност „Оборище“",
        "number": "36",
        "image": "/sites/btsbg/119-istoricheska-mestnost-oborishte.jpg",
        "link": "https://www.btsbg.org/100nto/istoricheska-mestnost-oborishche",
        "visited": false,
        "lat": 42.536892,
        "lng": 24.116364
      },
      {
        "name": "Къща - музей „Райна Княгиня“",
        "number": "36",
        "image": "/sites/btsbg/120-kushta-muzei-raina-knyaginya-panagyrishte.jpg",
        "link": "https://www.btsbg.org/100nto/kshcha-muzey-rayna-knyaginya",
        "visited": false,
        "lat": 42.5066408,
        "lng": 24.1837576
      }
    ]
  },
  {
    "city": "Пещера",
    "region": "Пазарджишка област",
    "sites": [
      {
        "name": "Пещера – пещера „Снежанка“ (Дължина: 145 м)",
        "number": "37",
        "image": "/sites/btsbg/121-peshtera-snezjanka.jpg",
        "link": "https://www.btsbg.org/100nto/peshchera-peshchera-snezhanka-dlzhina-145-m",
        "visited": false,
        "lat": 42.0031093,
        "lng": 24.2774402
      },
      {
        "name": "крепост \"Перистера\"",
        "number": "37а",
        "image": "/sites/btsbg/122-krepost-paristera.jpg",
        "link": "https://www.btsbg.org/100nto/krepost-peristera",
        "visited": false,
        "lat": 42.0389931,
        "lng": 24.3044283
      }
    ]
  },
  {
    "city": "Батак",
    "region": "Пазарджишка област",
    "sites": [
      {
        "name": "Исторически музей",
        "number": "38",
        "image": "/sites/btsbg/123-istoricheski-muzei-batak.jpg",
        "link": "https://www.btsbg.org/100nto/istoricheski-muzey-4",
        "visited": false,
        "lat": 41.9427049,
        "lng": 24.2183297
      }
    ]
  },
  {
    "city": "Стрелча",
    "region": "Пазарджишка област",
    "sites": [
      {
        "name": "Исторически музей – Стрелча",
        "number": "36а",
        "image": "/sites/btsbg/124-36-01.jpg",
        "link": "https://www.btsbg.org/100nto/istoricheski-muzey-strelcha",
        "visited": false,
        "lat": 42.5070548,
        "lng": 24.3181212
      }
    ]
  },
  {
    "city": "с.Славовица",
    "region": "Пазарджишка област",
    "sites": [
      {
        "name": "Вила-музей \"Александър стамболийски\"",
        "number": "35а",
        "image": "/sites/btsbg/125-vila-muzei-aleksandur-stamboliiski.jpg",
        "link": "https://www.btsbg.org/100nto/vila-muzey-aleksandr-stamboliyski",
        "visited": false,
        "lat": 42.314611,
        "lng": 24.075653
      }
    ]
  },
  {
    "city": "Велинград",
    "region": "Пазарджишка област",
    "sites": [
      {
        "name": "Исторически музей",
        "number": "55",
        "image": "/sites/btsbg/126-istoricheski-muzei-velingrad.jpg",
        "link": "https://www.btsbg.org/100nto/istoricheski-muzey-5",
        "visited": false,
        "lat": 42.0438669,
        "lng": 23.9868744
      }
    ]
  },
  {
    "city": "Брацигово",
    "region": "Пазарджишка област",
    "sites": [
      {
        "name": "Градски исторически музей",
        "number": "70",
        "image": "/sites/btsbg/127-istoricheski-muzei-bratsigovo.jpg",
        "link": "https://www.btsbg.org/100nto/gradski-istoricheski-muzey",
        "visited": false,
        "lat": 42.022909,
        "lng": 24.374513
      }
    ]
  },
  {
    "city": "Трън",
    "region": "Пернишка област",
    "sites": [
      {
        "name": "Ждрелото на р. Ерма",
        "number": "39",
        "image": "/sites/btsbg/128-zhdreloto-na-reka-erma.jpg",
        "link": "https://www.btsbg.org/100nto/zhdreloto-na-r-erma",
        "visited": false,
        "lat": 42.861794,
        "lng": 22.646685
      }
    ]
  },
  {
    "city": "Перник",
    "region": "Пернишка област",
    "sites": [
      {
        "name": "Подземен минен музей",
        "number": "39а",
        "image": "/sites/btsbg/129-podzemen-minen-muzei-pernik.jpg",
        "link": "https://www.btsbg.org/100nto/podzemen-minen-muzey",
        "visited": true,
        "lat": 42.609556,
        "lng": 23.029208
      }
    ]
  },
  {
    "city": "Плевен",
    "region": "Плевенска област",
    "sites": [
      {
        "name": "Регионален исторически музей",
        "number": "40",
        "image": "/sites/btsbg/130-regionalen-istoricheski-muzei-pleven.jpg",
        "link": "https://www.btsbg.org/100nto/regionalen-istoricheski-muzey-6",
        "visited": false,
        "lat": 43.4038377,
        "lng": 24.6184445
      },
      {
        "name": "Мавзолей-параклис „Св. Георги Победоносец“",
        "number": "40",
        "image": "/sites/btsbg/131-mavzolei-sveti-georgi-pobedonosets-pleven.jpg",
        "link": "https://www.btsbg.org/100nto/mavzoley-paraklis-sv-georgi-pobedonosec",
        "visited": false,
        "lat": 43.407405,
        "lng": 24.619567
      },
      {
        "name": "Панорама „Плевенска епопея – 1877 г.“",
        "number": "40",
        "image": "/sites/btsbg/132-panoramata-pleven.jpg",
        "link": "https://www.btsbg.org/100nto/panorama-plevenska-epopeya-1877-g",
        "visited": true,
        "lat": 43.398811,
        "lng": 24.606231
      }
    ]
  },
  {
    "city": "Белене",
    "region": "Плевенска област",
    "sites": [
      {
        "name": "Античен кастел и митница „Димум“",
        "number": "72б",
        "image": "/sites/btsbg/133-72-01.jpg",
        "link": "https://www.btsbg.org/100nto/antichen-kastel-i-mitnica-dimum",
        "visited": false,
        "lat": 43.652433,
        "lng": 25.130925
      },
      {
        "name": "Лагерът „Белене“",
        "number": "72б",
        "image": "/sites/btsbg/134-72-01.jpg",
        "link": "https://www.btsbg.org/100nto/lagert-belene",
        "visited": false,
        "lat": 43.671829,
        "lng": 25.156009
      }
    ]
  },
  {
    "city": "Пловдив",
    "region": "Пловдивска област",
    "sites": [
      {
        "name": "Исторически музей",
        "number": "41",
        "image": "/sites/btsbg/135-istoricheski-muzei-plovdiv.jpg",
        "link": "https://www.btsbg.org/100nto/istoricheski-muzey-7",
        "visited": false,
        "lat": 42.6366858,
        "lng": 24.8062936
      },
      {
        "name": "Етнографски музей",
        "number": "41",
        "image": "/sites/btsbg/136-etnogravski-muzei-plovdiv.jpg",
        "link": "https://www.btsbg.org/100nto/etnografski-muzey-0",
        "visited": false,
        "lat": 42.14999,
        "lng": 24.7532065
      },
      {
        "name": "Античен театър",
        "number": "41",
        "image": "/sites/btsbg/137-antichen-teatur-plovdiv.jpg",
        "link": "https://www.btsbg.org/100nto/antichen-teatr",
        "visited": false,
        "lat": 42.1469923,
        "lng": 24.7511002
      },
      {
        "name": "Къща “Хиндлиян”",
        "number": "41",
        "image": "/sites/btsbg/138-41-01.jpeg",
        "link": "https://www.btsbg.org/100nto/kshcha-hindliyan",
        "visited": false,
        "lat": 42.14992,
        "lng": 24.751256
      },
      {
        "name": "Епископската базилика на Филипопол",
        "number": "41б",
        "image": "/sites/btsbg/139-41-01.jpg",
        "link": "https://www.btsbg.org/100nto/episkopskata-bazilika-na-filipopol",
        "visited": false,
        "lat": 42.1426054,
        "lng": 24.7345031
      },
      {
        "name": "Късноантична сграда „Ирини“ от Филипопол",
        "number": "41б",
        "image": "/sites/btsbg/140-41-01.jpg",
        "link": "https://www.btsbg.org/100nto/ksnoantichna-sgrada-irini-ot-filipopol",
        "visited": false,
        "lat": 42.144913,
        "lng": 24.751575
      },
      {
        "name": "Малка Раннохристиянска базилика",
        "number": "41б",
        "image": "/sites/btsbg/141-41-01.jpeg",
        "link": "https://www.btsbg.org/100nto/malka-rannohristiyanska-bazilika",
        "visited": false,
        "lat": 42.146494,
        "lng": 24.757959
      }
    ]
  },
  {
    "city": "с.Свежен",
    "region": "Пловдивска област",
    "sites": [
      {
        "name": "Връх Кадрафил - Гробът на Хаджи Димитър",
        "number": "44в",
        "image": "/sites/btsbg/142-site.jpg",
        "link": "https://www.btsbg.org/100nto/vrh-kadrafil-grobt-na-hadzhi-dimitr",
        "visited": false,
        "lat": 42.504503,
        "lng": 25.026957
      },
      {
        "name": "Къща-музей \"Полк. В. Серафимов\"",
        "number": "44в",
        "image": "/sites/btsbg/143-site.jpg",
        "link": "https://www.btsbg.org/100nto/kshcha-muzey-polk-v-serafimov",
        "visited": false,
        "lat": 42.5070894,
        "lng": 25.0208211
      }
    ]
  },
  {
    "city": "Перущица",
    "region": "Пловдивска област",
    "sites": [
      {
        "name": "Исторически музей",
        "number": "42",
        "image": "/sites/btsbg/144-istoricheski-muzei-perushtitsa.jpg",
        "link": "https://www.btsbg.org/100nto/istoricheski-muzey-8",
        "visited": true,
        "lat": 42.0556131,
        "lng": 24.5455523
      }
    ]
  },
  {
    "city": "Сопот",
    "region": "Пловдивска област",
    "sites": [
      {
        "name": "Къща-музей „Иван Вазов“",
        "number": "43",
        "image": "/sites/btsbg/145-kushta-muzei-ivan-vazov-sopot.jpg",
        "link": "https://www.btsbg.org/100nto/kshcha-muzey-ivan-vazov-0",
        "visited": false,
        "lat": 42.6542156,
        "lng": 24.7558263
      },
      {
        "name": "Женски метох",
        "number": "43",
        "image": "/sites/btsbg/146-jenski-metoh-sopot.jpg",
        "link": "https://www.btsbg.org/100nto/zhenski-metoh",
        "visited": false,
        "lat": 42.655622,
        "lng": 24.758694
      }
    ]
  },
  {
    "city": "Карлово",
    "region": "Пловдивска област",
    "sites": [
      {
        "name": "Национален музей „Васил Левски“",
        "number": "44",
        "image": "/sites/btsbg/147-muzei-vasil-levski-karlovo.jpg",
        "link": "https://www.btsbg.org/100nto/nacionalen-muzey-vasil-levski",
        "visited": false,
        "lat": 43.129966,
        "lng": 24.717439
      },
      {
        "name": "Исторически музей",
        "number": "44а",
        "image": "/sites/btsbg/148-istoricheski-muzei-karlovo.jpg",
        "link": "https://www.btsbg.org/100nto/istoricheski-muzey-6",
        "visited": false,
        "lat": 42.6366858,
        "lng": 24.8062936
      },
      {
        "name": "Архитектурен туристически комплекс „Старинно Карлово“",
        "number": "44б",
        "image": "/sites/btsbg/149-site.jpg",
        "link": "https://www.btsbg.org/100nto/arhitekturen-turisticheski-kompleks-starinno-karlovo",
        "visited": false,
        "lat": 42.638957,
        "lng": 24.805761
      }
    ]
  },
  {
    "city": "Калофер",
    "region": "Пловдивска област",
    "sites": [
      {
        "name": "Нац. музей „Христо Ботев“",
        "number": "45",
        "image": "/sites/btsbg/150-muzei-hristo-botev-kalofer.jpg",
        "link": "https://www.btsbg.org/100nto/nac-muzey-hristo-botev",
        "visited": false,
        "lat": 42.611171,
        "lng": 24.97746
      },
      {
        "name": "Природен феномен „Райско пръскало“",
        "number": "45б",
        "image": "/sites/btsbg/151-7.jpg",
        "link": "https://www.btsbg.org/100nto/priroden-fenomen-raysko-prskalo",
        "visited": false,
        "lat": 42.701192,
        "lng": 24.925361
      },
      {
        "name": "Връх Ботев – Стара планина",
        "number": "45а",
        "image": "/sites/btsbg/152-vruh-botev.jpg",
        "link": "https://www.btsbg.org/100nto/vrh-botev-stara-planina",
        "visited": false,
        "lat": 42.717184,
        "lng": 24.917577
      }
    ]
  },
  {
    "city": "Асеновград",
    "region": "Пловдивска област",
    "sites": [
      {
        "name": "Асенова крепост",
        "number": "47",
        "image": "/sites/btsbg/153-asenova-krepost-asenovgrad.jpg",
        "link": "https://www.btsbg.org/100nto/asenova-krepost",
        "visited": false,
        "lat": 41.9866813,
        "lng": 24.8734732
      },
      {
        "name": "Исторически музей",
        "number": "47а",
        "image": "/sites/btsbg/154-istoricheski-muzei-asenovgrad.jpg",
        "link": "https://www.btsbg.org/100nto/istoricheski-muzey-9",
        "visited": false,
        "lat": 42.0065169,
        "lng": 24.8744813
      }
    ]
  },
  {
    "city": "с.Бачково",
    "region": "Пловдивска област",
    "sites": [
      {
        "name": "Бачковски манастир",
        "number": "47б",
        "image": "/sites/btsbg/155-bachkovski-manastir.jpg",
        "link": "https://www.btsbg.org/100nto/bachkovski-manastir",
        "visited": true,
        "lat": 41.9417765,
        "lng": 24.8512692
      }
    ]
  },
  {
    "city": "с.Старосел",
    "region": "Пловдивска област",
    "sites": [
      {
        "name": "Тракийска гробница",
        "number": "67",
        "image": "/sites/btsbg/156-trakiiska-grobnitsa-starosel.jpg",
        "link": "https://www.btsbg.org/100nto/trakiyska-grobnica",
        "visited": false,
        "lat": 42.5121,
        "lng": 24.54704
      }
    ]
  },
  {
    "city": "Хисаря",
    "region": "Пловдивска област",
    "sites": [
      {
        "name": "Археологически музей",
        "number": "67а",
        "image": "/sites/btsbg/157-arheologicheski-muzei-hisarya.jpg",
        "link": "https://www.btsbg.org/100nto/arheologicheski-muzey-1",
        "visited": false,
        "lat": 42.5018847,
        "lng": 24.7061749
      }
    ]
  },
  {
    "city": "Клисура",
    "region": "Пловдивска област",
    "sites": [
      {
        "name": "Исторически музей",
        "number": "77",
        "image": "/sites/btsbg/158-istoricheski-muzei-klisura.jpg",
        "link": "https://www.btsbg.org/100nto/istoricheski-muzey-10",
        "visited": false,
        "lat": 42.6942539,
        "lng": 24.4499704
      }
    ]
  },
  {
    "city": "Разград",
    "region": "Разградска област",
    "sites": [
      {
        "name": "Арх. резерват „Абритус“",
        "number": "48",
        "image": "/sites/btsbg/159-arhitekturen-rezervat-arbitus-razgrad.jpg",
        "link": "https://www.btsbg.org/100nto/arh-rezervat-abritus",
        "visited": false,
        "lat": 43.522106,
        "lng": 26.552326
      }
    ]
  },
  {
    "city": "Исперих",
    "region": "Разградска област",
    "sites": [
      {
        "name": "Исторически музей",
        "number": "49",
        "image": "/sites/btsbg/160-istoricheski-muzei-isperih.jpg",
        "link": "https://www.btsbg.org/100nto/istoricheski-muzey-12",
        "visited": false,
        "lat": 43.7164325,
        "lng": 26.827778
      },
      {
        "name": "ИАР „Сборяново“",
        "number": "49",
        "image": "/sites/btsbg/161-sboryanovo-isperih.jpg",
        "link": "https://www.btsbg.org/100nto/iar-sboryanovo",
        "visited": false,
        "lat": 43.740306,
        "lng": 26.757621
      },
      {
        "name": "„Демир Баба теке“ и тракийски град Хелис – с. Свещари",
        "number": "49",
        "image": "/sites/btsbg/162-demir-baba-teke.jpg",
        "link": "https://www.btsbg.org/100nto/demir-baba-teke-i-trakiyski-grad-helis-s-sveshchari",
        "visited": false,
        "lat": 43.738778,
        "lng": 26.752342
      }
    ]
  },
  {
    "city": "Русе",
    "region": "Русенска област",
    "sites": [
      {
        "name": "Пантеон на Възрожденците",
        "number": "50",
        "image": "/sites/btsbg/163-panteon-na-vazrojdencite-ruse.jpg",
        "link": "https://www.btsbg.org/100nto/panteon-na-vzrozhdencite",
        "visited": false,
        "lat": 43.8506675,
        "lng": 25.9608134
      },
      {
        "name": "Къща-музей „Захари Стоянов“",
        "number": "50",
        "image": "/sites/btsbg/164-kushta-muzei-zahari-stoyanov-ruse.jpg",
        "link": "https://www.btsbg.org/100nto/kshcha-muzey-zahari-stoyanov",
        "visited": false,
        "lat": 43.8514466,
        "lng": 25.949871
      }
    ]
  },
  {
    "city": "с.Басарбово",
    "region": "Русенска област",
    "sites": [
      {
        "name": "Скален Манастир \"Димитрий Басарбовски\"",
        "number": "50б",
        "image": "/sites/btsbg/165-skalen-manastir-dimitrii-basarbovski.jpg",
        "link": "https://www.btsbg.org/100nto/skalen-manastir-dimitriy-basarbovski",
        "visited": false,
        "lat": 43.766608,
        "lng": 25.96491
      }
    ]
  },
  {
    "city": "с.Иваново",
    "region": "Русенска област",
    "sites": [
      {
        "name": "Ивановски скални манастири",
        "number": "50а",
        "image": "/sites/btsbg/166-ivanovski-skalni-manastiri.jpg",
        "link": "https://www.btsbg.org/100nto/ivanovski-skalni-manastiri",
        "visited": false,
        "lat": 43.694718,
        "lng": 25.987746
      }
    ]
  },
  {
    "city": "с.Каран Върбовка",
    "region": "Русенска област",
    "sites": [
      {
        "name": "Манастир \"Света Марина\"",
        "number": "50в",
        "image": "/sites/btsbg/167-manastir-sveta-marina.jpg",
        "link": "https://www.btsbg.org/100nto/manastir-sveta-marina",
        "visited": false,
        "lat": 43.476619,
        "lng": 26.006763
      }
    ]
  },
  {
    "city": "Силистра",
    "region": "Силистренска област",
    "sites": [
      {
        "name": "Исторически музей",
        "number": "51",
        "image": "/sites/btsbg/168-istoricheski-muzei-silistra.jpg",
        "link": "https://www.btsbg.org/100nto/istoricheski-muzey-14",
        "visited": false,
        "lat": 44.0503722,
        "lng": 26.6090381
      }
    ]
  },
  {
    "city": "с.Сребърна",
    "region": "Силистренска област",
    "sites": [
      {
        "name": "резерват „Сребърна“",
        "number": "52",
        "image": "/sites/btsbg/169-rezervat-sreburna.jpg",
        "link": "https://www.btsbg.org/100nto/rezervat-srebrna",
        "visited": false,
        "lat": 44.102256,
        "lng": 27.062349
      }
    ]
  },
  {
    "city": "Тутракан",
    "region": "Силистренска област",
    "sites": [
      {
        "name": "Музей на Дунавския риболов",
        "number": "53",
        "image": "/sites/btsbg/170-site.jpg",
        "link": "https://www.btsbg.org/100nto/muzey-na-dunavskiya-ribolov",
        "visited": false,
        "lat": 44.049353,
        "lng": 26.608007
      },
      {
        "name": "Мемориал „Военно гробище-1916 г.\"",
        "number": "53",
        "image": "/sites/btsbg/171-dsc-0117.jpg",
        "link": "https://www.btsbg.org/100nto/memorial-voenno-grobishche-1916-g",
        "visited": false,
        "lat": 43.9767,
        "lng": 26.623961
      }
    ]
  },
  {
    "city": "Сливен",
    "region": "Сливенска област",
    "sites": [
      {
        "name": "Къща-музей „Хаджи Димитър“",
        "number": "54",
        "image": "/sites/btsbg/172-kushta-muzei-hadji-dimitar-sliven.jpg",
        "link": "https://www.btsbg.org/100nto/kshcha-muzey-hadzhi-dimitr",
        "visited": false,
        "lat": 42.6784474,
        "lng": 26.3117261
      },
      {
        "name": "Национален музей на текстилната индустрия",
        "number": "54",
        "image": "/sites/btsbg/173-muzei-na-tekstilnata-industriya-sliven.jpg",
        "link": "https://www.btsbg.org/100nto/nacionalen-muzey-na-tekstilnata-industriya",
        "visited": false,
        "lat": 42.6896197,
        "lng": 26.3174427
      },
      {
        "name": "Художествена галерия \"Димитър Добрович\"",
        "number": "54а",
        "image": "/sites/btsbg/174-hudojestvena-galeriya-sliven.jpg",
        "link": "https://www.btsbg.org/100nto/hudozhestvena-galeriya-dimitr-dobrovich",
        "visited": false,
        "lat": 42.6804728,
        "lng": 26.3196653
      },
      {
        "name": "Къща - музей \"Сливенски бит\"",
        "number": "54б",
        "image": "/sites/btsbg/175-muzei.jpg",
        "link": "https://www.btsbg.org/100nto/kshcha-muzey-slivenski-bit",
        "visited": false,
        "lat": 42.68738,
        "lng": 26.318817
      },
      {
        "name": "Антична крепост „Туида“",
        "number": "54б",
        "image": "/sites/btsbg/176-img-9096.jpg",
        "link": "https://www.btsbg.org/100nto/antichna-krepost-tuida",
        "visited": false,
        "lat": 42.6892737,
        "lng": 26.3320014
      }
    ]
  },
  {
    "city": "Котел",
    "region": "Сливенска област",
    "sites": [
      {
        "name": "Пантеон на Георги Раковски и Музей на котленските възрожденци",
        "number": "56",
        "image": "/sites/btsbg/177-panteon-na-rakovski-kotel.jpg",
        "link": "https://www.btsbg.org/100nto/panteon-na-georgi-rakovski-i-muzey-na-kotlenskite-vzrozhdenci",
        "visited": false,
        "lat": 42.888816,
        "lng": 26.447007
      },
      {
        "name": "Природонаучен музей",
        "number": "56",
        "image": "/sites/btsbg/178-prirodonauchen-muzei-kotel.jpg",
        "link": "https://www.btsbg.org/100nto/prirodonauchen-muzey",
        "visited": false,
        "lat": 42.8883399,
        "lng": 26.4296736
      }
    ]
  },
  {
    "city": "с.Жеравна",
    "region": "Сливенска област",
    "sites": [
      {
        "name": "Къща-музей „Йордан Йовков”",
        "number": "57",
        "image": "/sites/btsbg/179-kushta-muzei-iordan-iovkov-jeravna.jpg",
        "link": "https://www.btsbg.org/100nto/kshcha-muzey-yordan-yovkov",
        "visited": false,
        "lat": 42.832564,
        "lng": 26.457004
      }
    ]
  },
  {
    "city": "Нова Загора",
    "region": "Сливенска област",
    "sites": [
      {
        "name": "Исторически музей „Каранова могила”",
        "number": "76",
        "image": "/sites/btsbg/180-muzei-karanova-mogila-nova-zagora.jpg",
        "link": "https://www.btsbg.org/100nto/istoricheski-muzey-karanova-mogila",
        "visited": false,
        "lat": 42.491593,
        "lng": 26.01231
      }
    ]
  },
  {
    "city": "София",
    "region": "София - град",
    "sites": [
      {
        "name": "Национален исторически музей",
        "number": "58",
        "image": "/sites/btsbg/181-nacionalen-istoricheski-muzei-sofia.jpg",
        "link": "https://www.btsbg.org/100nto/nacionalen-istoricheski-muzey",
        "visited": true,
        "lat": 42.6550407,
        "lng": 23.2708231
      },
      {
        "name": "Национален музей „Боянска черква“",
        "number": "58а",
        "image": "/sites/btsbg/182-boyanska-cherkva-sofia.jpg",
        "link": "https://www.btsbg.org/100nto/nacionalen-muzey-boyanska-cherkva",
        "visited": true,
        "lat": 42.644625,
        "lng": 23.266189
      },
      {
        "name": "Храм-паметник „Александър Невски“",
        "number": "59",
        "image": "/sites/btsbg/183-hram-pametnik-aleksandur-nevski.jpg",
        "link": "https://www.btsbg.org/100nto/hram-pametnik-aleksandr-nevski",
        "visited": false,
        "lat": 42.6958124,
        "lng": 23.3327934
      },
      {
        "name": "Национален военноисторически музей",
        "number": "59а",
        "image": "/sites/btsbg/184-voennoistoricheski-muzei-sofia.jpg",
        "link": "https://www.btsbg.org/100nto/nacionalen-voennoistoricheski-muzey",
        "visited": true,
        "lat": 42.6887621,
        "lng": 23.3506491
      },
      {
        "name": "Национален музей „Земята и хората“",
        "number": "61",
        "image": "/sites/btsbg/185-muzei-zemyata-i-horata-sofia.jpg",
        "link": "https://www.btsbg.org/100nto/nacionalen-muzey-zemyata-i-horata",
        "visited": false,
        "lat": 42.6797867,
        "lng": 23.320544
      },
      {
        "name": "Национален дворец на културата",
        "number": "61а",
        "image": "/sites/btsbg/186-ndk-sofia.jpg",
        "link": "https://www.btsbg.org/100nto/nacionalen-dvorec-na-kulturata",
        "visited": false,
        "lat": 42.6847601,
        "lng": 23.3189417
      },
      {
        "name": "Национален етнографски музей (ИЕФЕМ - БАН)",
        "number": "62",
        "image": "/sites/btsbg/187-nacionalna-hudojestvena-galeriya-sofia-0.jpg",
        "link": "https://www.btsbg.org/100nto/nacionalen-etnografski-muzey-iefem-ban",
        "visited": false,
        "lat": 42.6963353,
        "lng": 23.325065
      },
      {
        "name": "Национална художествена галерия",
        "number": "63а",
        "image": "/sites/btsbg/188-nacionalna-hudojestvena-galeriya-sofia-1.jpg",
        "link": "https://www.btsbg.org/100nto/nacionalna-hudozhestvena-galeriya",
        "visited": false,
        "lat": 42.6965175,
        "lng": 23.3267637
      },
      {
        "name": "Национален природонаучен музей при БАН",
        "number": "65",
        "image": "/sites/btsbg/189-site.jpg",
        "link": "https://www.btsbg.org/100nto/nacionalen-prirodonauchen-muzey-pri-ban",
        "visited": false,
        "lat": 42.6959958,
        "lng": 23.3285616
      },
      {
        "name": "Софийска синагога",
        "number": "65а",
        "image": "/sites/btsbg/190-65-01.jpg",
        "link": "https://www.btsbg.org/100nto/sofiyska-sinagoga",
        "visited": false,
        "lat": 42.700265,
        "lng": 23.320949
      },
      {
        "name": "Музей на физическата култура и спорта",
        "number": "66",
        "image": "/sites/btsbg/191-muzei-na-fizicheskata-kultura-i-sporta-sofia.jpg",
        "link": "https://www.btsbg.org/100nto/muzey-na-fizicheskata-kultura-i-sporta",
        "visited": false,
        "lat": 42.688106,
        "lng": 23.334521
      },
      {
        "name": "Зоопарк",
        "number": "64",
        "image": "/sites/btsbg/192-zoologicheska-gradina-sofia.jpg",
        "link": "https://www.btsbg.org/100nto/zoopark",
        "visited": true,
        "lat": 42.6582061,
        "lng": 23.3315156
      },
      {
        "name": "Национален антропологичен музей",
        "number": "66а",
        "image": "/sites/btsbg/193-nacionalen-antropologichen-muzei-sofia.jpg",
        "link": "https://www.btsbg.org/100nto/nacionalen-antropologichen-muzey",
        "visited": false,
        "lat": 42.6793487,
        "lng": 23.3545334
      },
      {
        "name": "Археологически институт с музей при БАН",
        "number": "68",
        "image": "/sites/btsbg/194-arheologicheski-institut-ban.jpg",
        "link": "https://www.btsbg.org/100nto/arheologicheski-institut-s-muzey-pri-ban",
        "visited": false,
        "lat": 42.696522,
        "lng": 23.324514
      },
      {
        "name": "Национален политехнически музей",
        "number": "68а",
        "image": "/sites/btsbg/195-nacionalen-politehnicheski-muzei.jpg",
        "link": "https://www.btsbg.org/100nto/nacionalen-politehnicheski-muzey",
        "visited": true,
        "lat": 42.7040528,
        "lng": 23.3119863
      },
      {
        "name": "Черни връх – Витоша",
        "number": "74а",
        "image": "/sites/btsbg/196-cherni-vruh.jpg",
        "link": "https://www.btsbg.org/100nto/cherni-vrh-vitosha",
        "visited": false,
        "lat": 42.563085,
        "lng": 23.279386
      },
      {
        "name": "хижа Алеко - Витоша (1977 м.н.в)",
        "number": "74",
        "image": "/sites/btsbg/197-hija-aleko.jpg",
        "link": "https://www.btsbg.org/100nto/hizha-aleko-vitosha-1977-mnv",
        "visited": false,
        "lat": 42.58262,
        "lng": 23.292137
      }
    ]
  },
  {
    "city": "Етрополе",
    "region": "София - област",
    "sites": [
      {
        "name": "Исторически музей",
        "number": "63",
        "image": "/sites/btsbg/198-istoricheski-muzei-etropole.jpg",
        "link": "https://www.btsbg.org/100nto/istoricheski-muzey-13",
        "visited": false,
        "lat": 42.8305022,
        "lng": 23.9940926
      },
      {
        "name": "Часовниковата кула",
        "number": "63",
        "image": "/sites/btsbg/199-chasovnikova-kula-etropole.jpg",
        "link": "https://www.btsbg.org/100nto/chasovnikovata-kula",
        "visited": false,
        "lat": 42.829803,
        "lng": 23.9927934
      },
      {
        "name": "манастир „Св. Троица”",
        "number": "63",
        "image": "/sites/btsbg/200-manastir-sveta-troica-etropole.jpg",
        "link": "https://www.btsbg.org/100nto/manastir-sv-troica",
        "visited": false,
        "lat": 42.823862,
        "lng": 24.037249
      }
    ]
  },
  {
    "city": "Копривщица",
    "region": "София - област",
    "sites": [
      {
        "name": "Копривщица – АИР",
        "number": "75",
        "image": "/sites/btsbg/201-site.jpg",
        "link": "https://www.btsbg.org/100nto/koprivshchica-air",
        "visited": true,
        "lat": 42.640036,
        "lng": 24.357746
      }
    ]
  },
  {
    "city": "с.Байлово",
    "region": "София - област",
    "sites": [
      {
        "name": "Къща-музей „Елин Пелин“",
        "number": "82б",
        "image": "/sites/btsbg/202-20160824-135914.jpg",
        "link": "https://www.btsbg.org/100nto/kshcha-muzey-elin-pelin",
        "visited": false,
        "lat": 42.656793,
        "lng": 23.820521
      }
    ]
  },
  {
    "city": "Сливница",
    "region": "София - област",
    "sites": [
      {
        "name": "Първи войнишки паметник",
        "number": "62а",
        "image": "/sites/btsbg/203-dsc-0017.jpg",
        "link": "https://www.btsbg.org/100nto/prvi-voynishki-pametnik",
        "visited": false,
        "lat": 42.846965,
        "lng": 22.977519
      }
    ]
  },
  {
    "city": "с.Осеновлаг",
    "region": "София - област",
    "sites": [
      {
        "name": "Манарстир ”7-те престола”",
        "number": "78",
        "image": "/sites/btsbg/204-manastir-sedemte-prestola.jpg",
        "link": "https://www.btsbg.org/100nto/manarstir-7-te-prestola",
        "visited": false,
        "lat": 42.99974,
        "lng": 23.472699
      }
    ]
  },
  {
    "city": "Самоков",
    "region": "София - област",
    "sites": [
      {
        "name": "Исторически музей",
        "number": "79",
        "image": "/sites/btsbg/205-istoricheski-muzei-samokov.jpg",
        "link": "https://www.btsbg.org/100nto/istoricheski-muzey-11",
        "visited": false,
        "lat": 42.3393535,
        "lng": 23.5602468
      },
      {
        "name": "Девически манастир",
        "number": "79",
        "image": "/sites/btsbg/206-devicheski-manastir-samokov.jpg",
        "link": "https://www.btsbg.org/100nto/devicheski-manastir",
        "visited": false,
        "lat": 42.3310845,
        "lng": 23.5599529
      }
    ]
  },
  {
    "city": "с.Белчин",
    "region": "София - област",
    "sites": [
      {
        "name": "Цари Мали Град",
        "number": "79а",
        "image": "/sites/btsbg/207-tsari-mali-grad.jpg",
        "link": "https://www.btsbg.org/100nto/cari-mali-grad",
        "visited": false,
        "lat": 42.354112,
        "lng": 23.382071
      }
    ]
  },
  {
    "city": "Рила",
    "region": "София - област",
    "sites": [
      {
        "name": "вр. Мусала (2925 м.) - Рила",
        "number": "80",
        "image": "/sites/btsbg/208-vruh-musala.jpg",
        "link": "https://www.btsbg.org/100nto/vr-musala-2925-m-rila",
        "visited": false,
        "lat": 42.179132,
        "lng": 23.585265
      }
    ]
  },
  {
    "city": "Ботевград",
    "region": "София - област",
    "sites": [
      {
        "name": "Исторически музей",
        "number": "82а",
        "image": "/sites/btsbg/209-istoricheski-muzei-botevgrad.jpg",
        "link": "https://www.btsbg.org/100nto/istoricheski-muzey-0",
        "visited": false,
        "lat": 42.9066342,
        "lng": 23.7927473
      },
      {
        "name": "Часовникова кула",
        "number": "82a",
        "image": "/sites/btsbg/210-chasovnikova-kula-botevgrad.jpg",
        "link": "https://www.btsbg.org/100nto/chasovnikova-kula",
        "visited": false,
        "lat": 42.907967,
        "lng": 23.7924967
      },
      {
        "name": "Паметник-костница на Ботевите четници",
        "number": "82",
        "image": "/sites/btsbg/211-pametnik-na-botevite-chetnici.jpg",
        "link": "https://www.btsbg.org/100nto/pametnik-kostnica-na-botevite-chetnici",
        "visited": false,
        "lat": 42.952218,
        "lng": 23.768443
      }
    ]
  },
  {
    "city": "Чирпан",
    "region": "Старозагорска област",
    "sites": [
      {
        "name": "Къща-музей на Пейо К. Яворов",
        "number": "71",
        "image": "/sites/btsbg/212-kushta-muzei-peio-yavorov-chirpan.jpg",
        "link": "https://www.btsbg.org/100nto/kshcha-muzey-na-peyo-k-yavorov",
        "visited": false,
        "lat": 42.201989,
        "lng": 25.326855
      },
      {
        "name": "Худ. галерия „Никола Манев“",
        "number": "71",
        "image": "/sites/btsbg/213-hudojestvena-galeriya-nikola-manev-chirpan.jpg",
        "link": "https://www.btsbg.org/100nto/hud-galeriya-nikola-manev",
        "visited": false,
        "lat": 42.201691,
        "lng": 25.327456
      }
    ]
  },
  {
    "city": "с.Златна ливада",
    "region": "Старозагорска област",
    "sites": [
      {
        "name": "Манастир „Св. Атанасий“",
        "number": "71",
        "image": "/sites/btsbg/214-manastir-sveti-atanasii-zlatna-livada.jpg",
        "link": "https://www.btsbg.org/100nto/manastir-sv-atanasiy",
        "visited": false,
        "lat": 42.105976,
        "lng": 25.424252
      }
    ]
  },
  {
    "city": "Стара Загора",
    "region": "Старозагорска област",
    "sites": [
      {
        "name": "Регионален исторически музей",
        "number": "90",
        "image": "/sites/btsbg/215-site.jpg",
        "link": "https://www.btsbg.org/100nto/regionalen-istoricheski-muzey-7",
        "visited": false,
        "lat": 42.426576,
        "lng": 25.6278691
      },
      {
        "name": "Музей \"Неолитни жилища\"",
        "number": "90",
        "image": "/sites/btsbg/216-muzei-neolitni-jilishta-stara-zagora.jpg",
        "link": "https://www.btsbg.org/100nto/muzey-neolitni-zhilishcha",
        "visited": false,
        "lat": 42.4245653,
        "lng": 25.6106758
      },
      {
        "name": "Паметник \"Бранителите на Стара Загора 1877 г.\"",
        "number": "90",
        "image": "/sites/btsbg/217-branitelite-na-stara-zagora.jpg",
        "link": "https://www.btsbg.org/100nto/pametnik-branitelite-na-stara-zagora-1877-g",
        "visited": false,
        "lat": 42.433435,
        "lng": 25.653988
      }
    ]
  },
  {
    "city": "с.Шипка",
    "region": "Старозагорска област",
    "sites": [
      {
        "name": "Връх Шипка – Национален парк-музей „Шипка“ - паметник на свободата",
        "number": "93",
        "image": "/sites/btsbg/218-vruh-shipka.jpg",
        "link": "https://www.btsbg.org/100nto/vrh-shipka-nacionalen-park-muzey-shipka-pametnik-na-svobodata",
        "visited": false,
        "lat": 42.748117,
        "lng": 25.321523
      }
    ]
  },
  {
    "city": "Казанлък",
    "region": "Старозагорска област",
    "sites": [
      {
        "name": "Тракийска гробница",
        "number": "91",
        "image": "/sites/btsbg/219-trakiiska-grobnitsa-kazanluk.jpg",
        "link": "https://www.btsbg.org/100nto/trakiyska-grobnica-0",
        "visited": false,
        "lat": 42.6257742,
        "lng": 25.3991715
      },
      {
        "name": "Литературно-художествен музей „Чудомир“",
        "number": "91",
        "image": "/sites/btsbg/220-muzei-chudomir-kazanluk.jpg",
        "link": "https://www.btsbg.org/100nto/literaturno-hudozhestven-muzey-chudomir",
        "visited": false,
        "lat": 42.620149,
        "lng": 25.3982212
      }
    ]
  },
  {
    "city": "Шипка",
    "region": "Старозагорска област",
    "sites": [
      {
        "name": "Храм-паметник „Рождество Христово“",
        "number": "92",
        "image": "/sites/btsbg/221-hram-rojdestvo-hristovo-grad-shipka.jpg",
        "link": "https://www.btsbg.org/100nto/hram-pametnik-rozhdestvo-hristovo",
        "visited": false,
        "lat": 42.7160652,
        "lng": 25.3289928
      }
    ]
  },
  {
    "city": "Търговище",
    "region": "Търговишка област",
    "sites": [
      {
        "name": "Средновековна крепост „Мисионис“",
        "number": "81",
        "image": "/sites/btsbg/222-krepost-misionis-turgivishte.jpg",
        "link": "https://www.btsbg.org/100nto/srednovekovna-krepost-misionis",
        "visited": false,
        "lat": 43.19802,
        "lng": 26.512724
      },
      {
        "name": "Славейковото училище",
        "number": "81",
        "image": "/sites/btsbg/223-slaveikovoto-uchilishte-turgovishte.jpg",
        "link": "https://www.btsbg.org/100nto/slaveykovoto-uchilishche",
        "visited": false,
        "lat": 43.242053,
        "lng": 26.571408
      }
    ]
  },
  {
    "city": "Попово",
    "region": "Търговишка област",
    "sites": [
      {
        "name": "Исторически музей гр. Попово",
        "number": "81а",
        "image": "/sites/btsbg/224-81-01.jpg",
        "link": "https://www.btsbg.org/100nto/istoricheski-muzey-gr-popovo",
        "visited": false,
        "lat": 43.3490195,
        "lng": 26.2193462
      }
    ]
  },
  {
    "city": "Хасково",
    "region": "Хасковска област",
    "sites": [
      {
        "name": "Монумент „Света Богородица“",
        "number": "72",
        "image": "/sites/btsbg/225-monument-sveta-bogoroditsa-haskovo.jpg",
        "link": "https://www.btsbg.org/100nto/monument-sveta-bogorodica",
        "visited": false,
        "lat": 41.9283616,
        "lng": 25.5540815
      },
      {
        "name": "Средновековна крепост (с.Мезек)",
        "number": "72а",
        "image": "/sites/btsbg/226-srednovekovna-krepost-selo-mezek.jpg",
        "link": "https://www.btsbg.org/100nto/srednovekovna-krepost-smezek",
        "visited": false,
        "lat": 41.7511678,
        "lng": 26.0497452
      }
    ]
  },
  {
    "city": "с.Мезек",
    "region": "Хасковска област",
    "sites": [
      {
        "name": "Тракийска куполна гробница",
        "number": "72а",
        "image": "/sites/btsbg/227-trakiiska-kupolna-grobnitsa-selo-mezek.jpg",
        "link": "https://www.btsbg.org/100nto/trakiyska-kupolna-grobnica",
        "visited": false,
        "lat": 41.734846,
        "lng": 26.102228
      }
    ]
  },
  {
    "city": "Ивайловград",
    "region": "Хасковска област",
    "sites": [
      {
        "name": "Антична вила „Армира”",
        "number": "72в",
        "image": "/sites/btsbg/228-img-9092.jpeg",
        "link": "https://www.btsbg.org/100nto/antichna-vila-armira",
        "visited": false,
        "lat": 41.499203,
        "lng": 26.106233
      },
      {
        "name": "Общински исторически музей",
        "number": "72в",
        "image": "/sites/btsbg/229-obshtinski-istoricheski-muzei-ivailovgrad.jpg",
        "link": "https://www.btsbg.org/100nto/obshchinski-istoricheski-muzey-1",
        "visited": false,
        "lat": 41.5274093,
        "lng": 26.1262833
      }
    ]
  },
  {
    "city": "с.Александрово",
    "region": "Хасковска област",
    "sites": [
      {
        "name": "Александровска гробница и музеен център",
        "number": "72",
        "image": "/sites/btsbg/230-aleksandrovska-grobmitsa-selo-aleksandrovo.jpg",
        "link": "https://www.btsbg.org/100nto/aleksandrovska-grobnica-i-muzeen-centr",
        "visited": false,
        "lat": 41.981546,
        "lng": 25.738553
      }
    ]
  },
  {
    "city": "с.Маджарово",
    "region": "Хасковска област",
    "sites": [
      {
        "name": "Природозащитен център \"Източни Родопи\"",
        "number": "72 г",
        "image": "/sites/btsbg/231-31144246-1779588932062643-811286173656809472-n.jpg",
        "link": "https://www.btsbg.org/100nto/prirodozashchiten-centr-iztochni-rodopi",
        "visited": false,
        "lat": 41.6433306,
        "lng": 25.8720619
      }
    ]
  },
  {
    "city": "Димитровград",
    "region": "Хасковска област",
    "sites": [
      {
        "name": "Исторически музей (създ. 1951 г.)",
        "number": "73",
        "image": "/sites/btsbg/232-istoricheski-muzei-dimitrovgrad.jpg",
        "link": "https://www.btsbg.org/100nto/istoricheski-muzey-szd-1951-g",
        "visited": false,
        "lat": 42.057402,
        "lng": 25.595972
      },
      {
        "name": "Дом-музей „Пеньо Пенев“ (създаден през 1964 г.)",
        "number": "73",
        "image": "/sites/btsbg/233-dom-muzei-penio-penev-dimitrovgrad.jpg",
        "link": "https://www.btsbg.org/100nto/dom-muzey-peno-penev-szdaden-prez-1964-g",
        "visited": false,
        "lat": 42.055996,
        "lng": 25.592396
      },
      {
        "name": "Астрономическа обсерватория „Джордано Бруно“",
        "number": "73",
        "image": "/sites/btsbg/234-observatoriya-djordano-bruno-dimitrovgrad.jpg",
        "link": "https://www.btsbg.org/100nto/astronomicheska-observatoriya-dzhordano-bruno",
        "visited": false,
        "lat": 42.045962,
        "lng": 25.577996
      }
    ]
  },
  {
    "city": "Шумен",
    "region": "Шуменска област",
    "sites": [
      {
        "name": "Регионален исторически музей",
        "number": "94",
        "image": "/sites/btsbg/235-regionalen-istoricheski-muzei-shumen.jpg",
        "link": "https://www.btsbg.org/100nto/regionalen-istoricheski-muzey-9",
        "visited": true,
        "lat": 43.2703419,
        "lng": 26.9275297
      },
      {
        "name": "ИАР „Шуменска крепост“",
        "number": "94",
        "image": "/sites/btsbg/236-shumenska-krepost-shumen.jpg",
        "link": "https://www.btsbg.org/100nto/iar-shumenska-krepost",
        "visited": false,
        "lat": 43.262523,
        "lng": 26.894612
      },
      {
        "name": "Паметник \"Създатели на българската държава\"",
        "number": "94а",
        "image": "/sites/btsbg/237-pametnik-1300-godini-balgaria-shumen.jpg",
        "link": "https://www.btsbg.org/100nto/pametnik-szdateli-na-blgarskata-drzhava",
        "visited": true,
        "lat": 43.2621837,
        "lng": 26.9221503
      },
      {
        "name": "Томбул джамия \"Шериф Халил паша - 1744 г.\"",
        "number": "95",
        "image": "/sites/btsbg/238-tombul-djamiya-shumen.jpg",
        "link": "https://www.btsbg.org/100nto/tombul-dzhamiya-sherif-halil-pasha-1744-g",
        "visited": true,
        "lat": 43.269491,
        "lng": 26.90997
      }
    ]
  },
  {
    "city": "Плиска",
    "region": "Шуменска област",
    "sites": [
      {
        "name": "Национален ИАР \"Плиска\"",
        "number": "96",
        "image": "/sites/btsbg/239-arheologicheski-rezervat-pliska.jpg",
        "link": "https://www.btsbg.org/100nto/nacionalen-iar-pliska",
        "visited": true,
        "lat": 43.3861559,
        "lng": 27.1310548
      }
    ]
  },
  {
    "city": "с.Мадара",
    "region": "Шуменска област",
    "sites": [
      {
        "name": "НИАР „Мадарски конник“",
        "number": "97",
        "image": "/sites/btsbg/240-madarski-konnik.jpg",
        "link": "https://www.btsbg.org/100nto/niar-madarski-konnik",
        "visited": false,
        "lat": 43.276877,
        "lng": 27.117133
      }
    ]
  },
  {
    "city": "Велики Преслав",
    "region": "Шуменска област",
    "sites": [
      {
        "name": "Национален ИАР \"Велики Преслав\"",
        "number": "98",
        "image": "/sites/btsbg/241-veliki-preslav.jpg",
        "link": "https://www.btsbg.org/100nto/nacionalen-iar-veliki-preslav",
        "visited": false,
        "lat": 43.153297,
        "lng": 26.816339
      }
    ]
  },
  {
    "city": "Ямбол",
    "region": "Ямболска област",
    "sites": [
      {
        "name": "Регионален исторически музей",
        "number": "99",
        "image": "/sites/btsbg/242-regionalen-istoricheski-muzei-yambol.jpg",
        "link": "https://www.btsbg.org/100nto/regionalen-istoricheski-muzey-10",
        "visited": false,
        "lat": 42.4833409,
        "lng": 26.5079333
      },
      {
        "name": "Античен град \"Кабиле\"",
        "number": "99",
        "image": "/sites/btsbg/243-antichen-grad-kabile-yambol.jpg",
        "link": "https://www.btsbg.org/100nto/antichen-grad-kabile",
        "visited": false,
        "lat": 42.547038,
        "lng": 26.484298
      },
      {
        "name": "МУЗЕЙ НА БОЙНАТА СЛАВА",
        "number": "99б",
        "image": "/sites/btsbg/244-main-img.jpg",
        "link": "https://www.btsbg.org/100nto/muzey-na-boynata-slava",
        "visited": false,
        "lat": 42.4894062,
        "lng": 26.5049661
      },
      {
        "name": "Безистен с интерактивен музей",
        "number": "99а",
        "image": "/sites/btsbg/245-2019-09-11-yambol-bezisten-10.jpg",
        "link": "https://www.btsbg.org/100nto/bezisten-s-interaktiven-muzey",
        "visited": false,
        "lat": 42.483745,
        "lng": 26.50553
      }
    ]
  },
  {
    "city": "Елхово",
    "region": "Ямболска област",
    "sites": [
      {
        "name": "Етнографско-археологически музей",
        "number": "100",
        "image": "/sites/btsbg/246-etnogravsko-arheologicheski-muzei-elhovo.jpg",
        "link": "https://www.btsbg.org/100nto/etnografsko-arheologicheski-muzey",
        "visited": false,
        "lat": 42.171212,
        "lng": 26.567106
      }
    ]
  }
]
